{
"type": "FeatureCollection",
"crs": { "type": "name", "properties": { "name": "urn:ogc:def:crs:OGC:1.3:CRS84" } },
                                                                                
"features": [
{ "type": "Feature", "properties": { "Name_a": "New Al Buraimi Crossing", "Name_e": "منفذ البريمي الجديد", "Outlet_ID": 45, "Type": "Land", "Location_Assurance": "Yes" }, "geometry": { "type": "Point", "coordinates": [ 55.769623021000029, 24.233788657000048, 0.0 ] } },
{ "type": "Feature", "properties": { "Name_a": "Saham Port", "Name_e": "ميناء صحم", "Outlet_ID": 70, "Type": "Sea", "Location_Assurance": "Yes" }, "geometry": { "type": "Point", "coordinates": [ 56.906028400000082, 24.153127200000029, 0.0 ] } },
{ "type": "Feature", "properties": { "Name_a": "Mina Sultan Qaboos", "Name_e": "ميناء السطان قابوس", "Outlet_ID": 1, "Type": "Sea", "Location_Assurance": "Yes" }, "geometry": { "type": "Point", "coordinates": [ 58.564975136000044, 23.628297037000038, 0.0 ] } },
{ "type": "Feature", "properties": { "Name_a": "Mina Salalah", "Name_e": "ميناء صلالة", "Outlet_ID": 21, "Type": "Sea", "Location_Assurance": "Yes" }, "geometry": { "type": "Point", "coordinates": [ 53.992028389000041, 16.939306011000042, 0.0 ] } },
{ "type": "Feature", "properties": { "Name_a": "Khasab Port", "Name_e": "ميناء خصـب  البحري", "Outlet_ID": 11, "Type": "Sea", "Location_Assurance": "Yes" }, "geometry": { "type": "Point", "coordinates": [ 56.248470003000079, 26.204279109000026, 0.0 ] } },
{ "type": "Feature", "properties": { "Name_a": "Salalah Airport (Cargo)", "Name_e": "مطار صلالة (الشحن)", "Outlet_ID": 26, "Type": "Air", "Location_Assurance": "Yes" }, "geometry": { "type": "Point", "coordinates": [ 53.935033037000039, 17.326696350000077, 0.0 ] } },
{ "type": "Feature", "properties": { "Name_a": "Hafeet Border Post", "Name_e": "منفذ حفيت", "Outlet_ID": 42, "Type": "Land", "Location_Assurance": "Yes" }, "geometry": { "type": "Point", "coordinates": [ 55.84638164100005, 24.018684386000075, 0.0 ] } },
{ "type": "Feature", "properties": { "Name_a": "Al Rawdha Crossing", "Name_e": "منفذ الروضة", "Outlet_ID": 46, "Type": "Land", "Location_Assurance": "Yes" }, "geometry": { "type": "Point", "coordinates": [ 55.818913090000081, 24.904623338000079, 0.0 ] } },
{ "type": "Feature", "properties": { "Name_a": "Muscat Airport (Passenger)", "Name_e": "مطار مسقط (الركاب)", "Outlet_ID": 50, "Type": "Air", "Location_Assurance": "Yes" }, "geometry": { "type": "Point", "coordinates": [ 58.291679765000026, 23.588711132000071, 0.0 ] } },
{ "type": "Feature", "properties": { "Name_a": "Musact  Airport (Cargo)", "Name_e": "مطار مسقط (الشحن)", "Outlet_ID": 56, "Type": "Air", "Location_Assurance": "Yes" }, "geometry": { "type": "Point", "coordinates": [ 58.294752358000039, 23.588745761000041, 0.0 ] } },
{ "type": "Feature", "properties": { "Name_a": "Sohar Port", "Name_e": "ميناء صحار", "Outlet_ID": 71, "Type": "Sea", "Location_Assurance": "Yes" }, "geometry": { "type": "Point", "coordinates": [ 56.623357627000075, 24.488000453000041, 0.0 ] } },
{ "type": "Feature", "properties": { "Name_a": "Sur Port", "Name_e": "ميناء صور", "Outlet_ID": 84, "Type": "Sea", "Location_Assurance": "Yes" }, "geometry": { "type": "Point", "coordinates": [ 59.524668898000073, 22.57535850000005, 0.0 ] } },
{ "type": "Feature", "properties": { "Name_a": "Al Duqm Port", "Name_e": "ميناء الدقم", "Outlet_ID": 87, "Type": "Sea", "Location_Assurance": "Yes" }, "geometry": { "type": "Point", "coordinates": [ 57.713164486000039, 19.659579629000064, 0.0 ] } },
{ "type": "Feature", "properties": { "Name_a": "Wadi Jizzi Border Post", "Name_e": "منفذ وادي الجزي", "Outlet_ID": 40, "Type": "Land", "Location_Assurance": "Yes" }, "geometry": { "type": "Point", "coordinates": [ 56.198322903000076, 24.302617318000046, 0.0 ] } },
{ "type": "Feature", "properties": { "Name_a": "Al.Wajajah Border Post", "Name_e": "منفذ الوجاجة", "Outlet_ID": 36, "Type": "Land", "Location_Assurance": "Yes" }, "geometry": { "type": "Point", "coordinates": [ 56.210673913000051, 24.716961740000045, 0.0 ] } },
{ "type": "Feature", "properties": { "Name_a": "Wadi Saa Border Post", "Name_e": "منفذ وادي صاع", "Outlet_ID": 44, "Type": "Land", "Location_Assurance": "Yes" }, "geometry": { "type": "Point", "coordinates": [ 56.066752350000058, 24.052685323000048, 0.0 ] } },
{ "type": "Feature", "properties": { "Name_a": "Al.Mazyoona Border Post", "Name_e": "منفذ المزيونة", "Outlet_ID": 29, "Type": "Land", "Location_Assurance": "Yes" }, "geometry": { "type": "Point", "coordinates": [ 52.566756253000051, 17.815262477000033, 0.0 ] } },
{ "type": "Feature", "properties": { "Name_a": "Khatmat Milaha Border Post", "Name_e": "منفذ خطمة الملاحة", "Outlet_ID": 30, "Type": "Land", "Location_Assurance": "Yes" }, "geometry": { "type": "Point", "coordinates": [ 56.365851019000047, 24.977958702000024, 0.0 ] } },
{ "type": "Feature", "properties": { "Name_a": "Sarfait Border Post", "Name_e": "منفذ صرفيت", "Outlet_ID": 19, "Type": "Land", "Location_Assurance": "No" }, "geometry": { "type": "Point", "coordinates": [ 53.10197570400004, 16.671839666000039, 0.0 ] } },
{ "type": "Feature", "properties": { "Name_a": "Al Russail Border Post", "Name_e": "الرسيل", "Outlet_ID": 5, "Type": "Land", "Location_Assurance": "No" }, "geometry": { "type": "Point", "coordinates": [ 58.200662440000031, 23.553101647000062, 0.0 ] } },
{ "type": "Feature", "properties": { "Name_a": "Directorate General Of Customs", "Name_e": "الإدارة العامة للجمارك", "Outlet_ID": 6, "Type": "Land", "Location_Assurance": "No" }, "geometry": { "type": "Point", "coordinates": [ 58.287527385000033, 23.584115742000051, 0.0 ] } },
{ "type": "Feature", "properties": { "Name_a": "Central Post Office", "Name_e": "البريد المركزي", "Outlet_ID": 9, "Type": "Land", "Location_Assurance": "No" }, "geometry": { "type": "Point", "coordinates": [ 58.292592528000057, 23.583601329000032, 0.0 ] } },
{ "type": "Feature", "properties": { "Name_a": "Salalah Post Office", "Name_e": "مكتب بريد صلالة", "Outlet_ID": 28, "Type": "Land", "Location_Assurance": "Yes" }, "geometry": { "type": "Point", "coordinates": [ 54.091415538000035, 17.019456052000066, 0.0 ] } },
{ "type": "Feature", "properties": { "Name_a": "Shinas Port", "Name_e": "ميناء شناص", "Outlet_ID": 32, "Type": "Land", "Location_Assurance": "No" }, "geometry": { "type": "Point", "coordinates": [ 56.326530351000031, 24.970748257000025, 0.0 ] } },
{ "type": "Feature", "properties": { "Name_a": "Magees Port", "Name_e": "ميناء مجيس", "Outlet_ID": 72, "Type": "Sea", "Location_Assurance": "Yes" }, "geometry": { "type": "Point", "coordinates": [ 56.573001874000056, 24.561725963000072, 0.0 ] } },
{ "type": "Feature", "properties": { "Name_a": "Al Buraimi Border Post", "Name_e": "منفذ البريمي", "Outlet_ID": 43, "Type": "Land", "Location_Assurance": "Yes" }, "geometry": { "type": "Point", "coordinates": [ 55.768246212000065, 24.260886131000063, 0.0 ] } },
{ "type": "Feature", "properties": { "Name_a": "Tybaat Border Post", "Name_e": "ميناء تيبات البري", "Outlet_ID": 12, "Type": "Land", "Location_Assurance": "Yes" }, "geometry": { "type": "Point", "coordinates": [ 56.087957005000078, 26.051866154000038, 0.0 ] } },
{ "type": "Feature", "properties": { "Name_a": "Beyah Port", "Name_e": "منفذ البيعة", "Outlet_ID": 78, "Type": "Sea", "Location_Assurance": "Yes" }, "geometry": { "type": "Point", "coordinates": [ 56.268392872000049, 25.650266235000061, 0.0 ] } }
]
}
